{"type":"FeatureCollection","features":[{"type":"Feature","properties":{"location":"Ngong Ping, Lantau Island","latitude":"22.254106","longitude":"113.905144","siteType":"View","title":"The Big Buddha"},"geometry":{"type":"Point","coordinates":[113.905144,22.254106]}},{"type":"Feature","properties":{"location":"Penny's Bay, Lantau Island","latitude":"22.313333","longitude":"114.043333","siteType":"Park","title":"Hong Kong Disneyland"},"geometry":{"type":"Point","coordinates":[114.043333,22.313333]}},{"type":"Feature","properties":{"location":"Victoria Harbour, Tsim Sha Tsui","latitude":"22.293097","longitude":"114.174761","siteType":"View","title":"Avenue of Stars"},"geometry":{"type":"Point","coordinates":[114.174761,22.293097]}},{"type":"Feature","properties":{"location":"Pai Tau Village, Sha Tin","latitude":"22.387581","longitude":"114.184814","siteType":"Temple","title":"Ten Thousand Buddhas Monastery"},"geometry":{"type":"Point","coordinates":[114.184814,22.387581]}},{"type":"Feature","properties":{"location":"Cotton Tree Drive, Central","latitude":"22.277500","longitude":"114.161667","siteType":"Park","title":"Hong Kong Park"},"geometry":{"type":"Point","coordinates":[114.161667,22.2775]}},{"type":"Feature","properties":{"location":"Chi Lin Drive, Diamond Hill","latitude":"22.340564","longitude":"114.205423","siteType":"Temple","title":"Chi Lin Nunnery"},"geometry":{"type":"Point","coordinates":[114.205423,22.340564]}},{"type":"Feature","properties":{"location":"Tai Hang Road, Wan Chai","latitude":"22.275687","longitude":"114.195341","siteType":"View","title":"Tiger Balm Garden"},"geometry":{"type":"Point","coordinates":[114.195341,22.275687]}},{"type":"Feature","properties":{"location":"Hollywood Road, Sheung Wan","latitude":"22.284016","longitude":"114.150202","siteType":"Temple","title":"Man Mo Temple"},"geometry":{"type":"Point","coordinates":[114.150202,22.284016]}},{"type":"Feature","properties":{"location":"Victoria Gap, Hong Kong Island","latitude":"22.271107","longitude":"114.150151","siteType":"View","title":"The Peak Tower"},"geometry":{"type":"Point","coordinates":[114.150151,22.271107]}},{"type":"Feature","properties":{"location":"Ching Cheung Road, Wong Tai Sin","latitude":"22.342817","longitude":"114.193664","siteType":"Temple","title":"Wong Tai Sin Temple"},"geometry":{"type":"Point","coordinates":[114.193664,22.342817]}},{"type":"Feature","properties":{"location":"Austin Road West, West Kowloon","latitude":"22.303321","longitude":"114.160201","siteType":"View","title":"Sky100"},"geometry":{"type":"Point","coordinates":[114.160201,22.303321]}},{"type":"Feature","properties":{"location":"Tai O, Lantau Island","latitude":"22.252658","longitude":"113.863527","siteType":"View","title":"Tai O Fishing Village"},"geometry":{"type":"Point","coordinates":[113.863527,22.252658]}},{"type":"Feature","properties":{"location":"Wong Chuk Hang, Hong Kong Island","latitude":"22.248523","longitude":"114.174529","siteType":"Park","title":"Ocean Park"},"geometry":{"type":"Point","coordinates":[114.174529,22.248523]}},{"type":"Feature","properties":{"location":"Wetland Park Road, Tin Shui Wai","latitude":"22.468623","longitude":"114.008238","siteType":"Park","title":"Hong Kong Wetland Park"},"geometry":{"type":"Point","coordinates":[114.008238,22.468623]}},{"type":"Feature","properties":{"location":"Pak Yan Road, Ma Wan","latitude":"22.348269","longitude":"114.061555","siteType":"Park","title":"Noah's Ark Hong Kong Theme Park"},"geometry":{"type":"Point","coordinates":[114.061555,22.348269]}},{"type":"Feature","properties":{"location":"Chatham Road South, Tsim Sha Tsui","latitude":"22.301792","longitude":"114.177442","siteType":"View","title":"Hong Kong Museum o History"},"geometry":{"type":"Point","coordinates":[114.177442,22.301792]}},{"type":"Feature","properties":{"location":"Science Museum Road, Tsim Sha Tsui","latitude":"22.300958","longitude":"114.177582","siteType":"View","title":"Hong Kong Science Museum"},"geometry":{"type":"Point","coordinates":[114.177582,22.300958]}},{"type":"Feature","properties":{"location":"Salisbury Road, Tsim Sha Tsui","latitude":"22.293459","longitude":"114.172110","siteType":"View","title":"Hong Kong Art Museum"},"geometry":{"type":"Point","coordinates":[114.17211,22.293459]}},{"type":"Feature","properties":{"location":"Austin Road, Tsim Sha Tsui","latitude":"22.300378","longitude":"114.170318","siteType":"Park","title":"Kowloon Park"},"geometry":{"type":"Point","coordinates":[114.170318,22.300378]}},{"type":"Feature","properties":{"location":"West Kowloon, Tsim Sha Tsui","latitude":"22.300293","longitude":"114.155781","siteType":"Park","title":"West Kowloon Cultural District"},"geometry":{"type":"Point","coordinates":[114.155781,22.300293]}},{"type":"Feature","properties":{"location":"Lan Kwai Fong, Central","latitude":"22.280717","longitude":"114.155703","siteType":"View","title":"Lan Kwai Fong"},"geometry":{"type":"Point","coordinates":[114.155703,22.280717]}},{"type":"Feature","properties":{"location":"Market Street, Sai Kung","latitude":"22.379285","longitude":"114.271531","siteType":"Food","title":"Sai Kung Seafood Street"},"geometry":{"type":"Point","coordinates":[114.271531,22.379285]}},{"type":"Feature","properties":{"location":"Shum Wan Pier Drive, Aberdeen","latitude":"22.243334","longitude":"114.161971","siteType":"Food","title":"Jumbo Kingdom"},"geometry":{"type":"Point","coordinates":[114.161971,22.243334]}},{"type":"Feature","properties":{"location":"Clear Water Bay","latitude":"22.270521","longitude":"114.289939","siteType":"Temple","title":"Tin Hau Temple (Joss House Bay)"},"geometry":{"type":"Point","coordinates":[114.289939,22.270521]}},{"type":"Feature","properties":{"location":"Tung Hei Road, Shau Kei Wan","latitude":"22.282544","longitude":"114.235228","siteType":"View","title":"Hong Kong Museum of Coastal Defence"},"geometry":{"type":"Point","coordinates":[114.235228,22.282544]}},{"type":"Feature","properties":{"location":"Man Lam Road, Sha Tin","latitude":"22.377112","longitude":"114.185709","siteType":"View","title":"Hong Kong Heritage Museum"},"geometry":{"type":"Point","coordinates":[114.185709,22.377112]}},{"type":"Feature","properties":{"location":"Cheung Chau","latitude":"22.205275","longitude":"114.027603","siteType":"View","title":"Cheung Chau"},"geometry":{"type":"Point","coordinates":[114.027603,22.205275]}},{"type":"Feature","properties":{"location":"Salisbury Road, Tsim Sha Tsui","latitude":"22.294175","longitude":"114.171929","siteType":"View","title":"Hong Kong Space Museum"},"geometry":{"type":"Point","coordinates":[114.171929,22.294175]}},{"type":"Feature","properties":{"location":"Albany Road, Central","latitude":"22.277451","longitude":"114.156129","siteType":"Park","title":"Hong Kong Zoological and Botanical Garden"},"geometry":{"type":"Point","coordinates":[114.156129,22.277451]}},{"type":"Feature","properties":{"location":"Shung Tak Street, Tai Po Market","latitude":"22.448039","longitude":"114.164021","siteType":"View","title":"Hong Kong Railway Museum"},"geometry":{"type":"Point","coordinates":[114.164021,22.448039]}},{"type":"Feature","properties":{"location":"Castle Road, Central","latitude":"22.281968","longitude":"114.150788","siteType":"View","title":"Dr Sun Yat-sen Museum"},"geometry":{"type":"Point","coordinates":[114.150788,22.281968]}},{"type":"Feature","properties":{"location":"Tonkin Street, Cheung Sha Wan","latitude":"22.337949","longitude":"114.160027","siteType":"View","title":"Lei Cheng Uk Han Tomb Museum"},"geometry":{"type":"Point","coordinates":[114.160027,22.337949]}},{"type":"Feature","properties":{"location":"Wong Nai Chung Road, Happy Valley","latitude":"22.272725","longitude":"114.182410","siteType":"View","title":"Happy Valley Racecourse"},"geometry":{"type":"Point","coordinates":[114.18241,22.272725]}},{"type":"Feature","properties":{"location":"Sha Tin","latitude":"22.399463","longitude":"114.206829","siteType":"Park","title":"Penfold Park"},"geometry":{"type":"Point","coordinates":[114.206829,22.399463]}},{"type":"Feature","properties":{"location":"Sha Tin","latitude":"22.399978","longitude":"114.203953","siteType":"View","title":"Sha Tin Racecourse"},"geometry":{"type":"Point","coordinates":[114.203953,22.399978]}},{"type":"Feature","properties":{"location":"Universal Gate Road, Tai Po","latitude":"22.473996","longitude":"114.205884","siteType":"View","title":"Tsz Shan Monastery"},"geometry":{"type":"Point","coordinates":[114.205884,22.473996]}},{"type":"Feature","properties":{"location":"Victoria Park Road, Causeway Bay","latitude":"22.282663","longitude":"114.188858","siteType":"Park","title":"Victoria Park"},"geometry":{"type":"Point","coordinates":[114.188858,22.282663]}},{"type":"Feature","properties":{"location":"Lam Kam Road, Tai Po","latitude":"22.428305","longitude":"114.120633","siteType":"Park","title":"Kadoorie Farm and Botanic Garden"},"geometry":{"type":"Point","coordinates":[114.120633,22.428305]}}]}